junction_name,cis_mean,violation_count,lat,lon,validated_pct,predicted_stress_next_h,historical_peak_stress,spillover_centrality,recency_score,quality_bonus,priority_score,rank,patrol_stop,officer_assigned,route_km
BTP075 - Police Corner,3.009568085106383,188,12.968845718276503,77.58628269328581,0.9414893617021277,0.0633,1.0,0.019985939244691393,0.9313267825548036,0.04707446808510639,0.6637,1,1.0,1.0,5.59
BTP053 - Three Let Junction,3.129101960784314,51,12.983894015686275,77.58177205098039,0.8431372549019608,0.3258,1.0,0.0034345009264042017,0.8469996701286499,0.04215686274509804,0.6548,2,2.0,2.0,11.72
BTP077 - Halasuru Gate Junction,2.7880366666666663,30,12.966806766666668,77.58703611,0.9333333333333333,0.3976,1.0,0.0034345009264042017,0.9457111726426694,0.04666666666666667,0.6452,3,2.0,1.0,5.59
BTP156 - Kamakya Junction,2.852130769230769,13,12.923719841795629,77.55360571975804,0.8461538461538461,0.2811,1.0,0.008836226725618622,0.9200711722428253,0.04230769230769231,0.634,4,4.0,3.0,9.46
BTP146 - Domlur Water Tank,2.5078047945205477,146,12.960488461643836,77.63886880273972,0.9726027397260274,0.4109,1.0,0.0034345009264042017,0.9768690210817781,0.04863013698630137,0.6088,5,5.0,2.0,11.72
BTP122 - Siddapura Junction,2.6993287671232875,146,12.948400291780821,77.59279610068494,0.8013698630136986,0.3829,1.0,0.0034345009264042017,0.9048171213226841,0.04006849315068493,0.6037,6,1.0,3.0,9.46
"BTP094 - Sri Skanda Complex, Mysore Road",2.5621982142857145,112,12.955815682142857,77.54617815178571,0.9553571428571429,0.3292,1.0,0.0034345009264042017,0.934135687082038,0.04776785714285715,0.5774,7,5.0,1.0,5.59
BTP154 - Itmadu Junction,2.308316666666667,12,12.929791199999999,77.54656500833333,0.8333333333333334,0.4431,1.0,0.0034345009264042017,0.9459710712821999,0.04166666666666667,0.5677,8,5.0,3.0,9.46
"BTP200 - 15th Cross, 33rd Main, JP Nagar",2.2014035714285716,28,12.9063283,77.58138778214285,0.8214285714285714,0.4756,1.0,0.0034345009264042017,0.9895040934035726,0.04107142857142857,0.5655,9,2.0,3.0,9.46
BTP157 - Kadirenahalli Cross,2.0871375,16,12.913022025,77.5670021,0.875,0.5098,1.0,0.0034345009264042017,0.9363548216195684,0.043750000000000004,0.5607,10,3.0,3.0,9.46
"BTP025 - Puttamma Choultry, Nagarbhavi",1.7654185185185185,27,12.978674192592594,77.53819774074074,0.9629629629629629,0.6218,1.0,0.0034345009264042017,0.9030578074550926,0.04814814814814815,0.5581,11,1.0,2.0,11.72
BTP064 - Devanga Hostel Junction,2.6611153846153845,104,12.962732790384617,77.58990461057692,0.9038461538461539,0.2542,1.0,0.0036996623403816294,0.9175121702536011,0.0451923076923077,0.5574,12,3.0,1.0,5.59
BTP212 - Minto Junction,2.4314846153846155,78,12.96031432051282,77.5714075602564,0.8974358974358975,0.2837,1.0,0.005640748438202277,0.9635242255520347,0.04487179487179488,0.5473,13,4.0,1.0,5.59
BTP035 - Basaweshwara Circle (LH) Junction,1.8941222222222223,36,12.984610472222222,77.58816219444445,0.8333333333333334,0.569,1.0,0.0034345009264042017,0.9041173942162557,0.04166666666666667,0.5435,14,3.0,2.0,11.72
BTP211 - Central Street Junction,2.8114840571640682,5388,12.983371022821446,77.60345435130863,0.9435783221974758,0.1248,1.0,0.0034345009264042017,0.9937724287527864,0.04717891610987379,0.5394,15,4.0,2.0,11.72
BTP133 - Adugodi Junction,2.1679575342465753,73,12.941853575342465,77.6086067250685,0.863013698630137,0.4225,1.0,0.0034345009264042017,0.9377642719339457,0.04315068493150685,0.5367,16,,,
"BTP170 - Dr. Bheem Rao Palace, Chord Road",2.3045429319371724,573,12.99037199306623,77.551225814101,0.9232111692844677,0.1303,1.0,0.015350321989570488,0.988434510540889,0.046160558464223386,0.5365,17,,,
BTP085 - Briyand Circle,2.450032530120482,166,12.966068878313253,77.56948985903615,0.8373493975903614,0.2899,1.0,0.0034345009264042017,0.9909735203270724,0.041867469879518074,0.5327,18,,,
BTP103 - Shanti Nagar TTMC,2.3692986111111107,144,12.9538741625,77.59162276111111,0.8611111111111112,0.2787,1.0,0.006117107070859711,0.947640420236108,0.04305555555555556,0.5318,19,,,
BTP030 - Mekhri Circle,2.4336367816091955,87,13.013624291954024,77.58397421839081,0.6781609195402298,0.3348,1.0,0.0034345009264042017,0.9803276722078389,0.03390804597701149,0.5293,20,,,
BTP181 - Bileka Halli Junction,1.7284875,8,12.9019944125,77.60112085,0.875,0.65,1.0,0.0034345009264042017,0.6476874019132539,0.043750000000000004,0.5277,21,,,
BTP104 - Medical College Circle,2.6428358090185675,1508,12.959562748076925,77.57661357181698,0.8607427055702918,0.147,1.0,0.005899573329490523,0.9900038984795929,0.04303713527851459,0.527,22,,,
"BTP221 - 15th Cross, 24th Main, JP Nagar",2.3865767241379308,116,12.905022600862068,77.58618874568965,0.9224137931034483,0.2642,1.0,0.004685836752314343,0.9353552114675276,0.046120689655172416,0.5241,23,,,
BTP079 - Town Hall Junction,2.55585987654321,162,12.964742432716049,77.58478980123456,0.9567901234567902,0.1904,1.0,0.005079040974174765,0.8621737522366277,0.04783950617283951,0.5224,24,,,
BTP048 - Shanthala Junction,2.765568361581921,1593,12.976960576691845,77.57075523407478,0.8650345260514752,0.1159,1.0,0.004010654658763131,0.9878247483481443,0.04325172630257376,0.522,25,,,
BTP121 - KH Circle,2.052329906542056,107,12.951853676635514,77.5903747271028,0.9065420560747663,0.3779,1.0,0.004861869791098974,0.9630244204760143,0.04532710280373832,0.5153,26,,,
BTP173 - TMC,2.500594736842105,152,12.98232968486842,77.59871615789473,0.9210526315789473,0.1215,1.0,0.008000546664833052,0.9773588300562781,0.04605263157894737,0.5122,27,,,
BTP171 - Indian Express (Balekundri),2.1058324561403508,114,12.986301935964912,77.59864174824561,0.8421052631578947,0.3809,1.0,0.0034345009264042017,0.9895640700126951,0.042105263157894736,0.5107,28,,,
BTP143 - ASC Junction,2.2981708333333333,24,12.9694987,77.6197457625,0.625,0.3732,1.0,0.0034345009264042017,0.9309369345955077,0.03125,0.5104,29,,,
"BTP178 - 18th Main, Marenahalli",1.8405,7,12.91689827142857,77.58956701428572,1.0,0.4934,1.0,0.0034345009264042017,0.7764271933945761,0.05,0.5085,30,,,
"BTP015 - Suguna Hospital, Dr. Rajkumar Road",2.1069106796116506,103,12.98771043883495,77.55949917572815,0.8543689320388349,0.3763,1.0,0.003918090699134503,0.9332160457421605,0.04271844660194175,0.5083,31,,,
BTP018 - Dhobi Ghat Junction,1.8732986910994764,382,12.98761222696335,77.54981949005236,0.9345549738219895,0.0521,1.0,0.02654278411906732,0.9606753366187187,0.046727748691099476,0.5077,32,,,
BTP078 - NR Square Junction,2.4169,244,12.965873413934425,77.5854067954918,0.8114754098360656,0.091,1.0,0.012317672006315871,0.9746099021381661,0.04057377049180328,0.5031,33,,,
"BTP026 - 1st Block Junction, Rajajinagar",2.2371961325966847,1086,13.002439084069982,77.55009351215469,0.8802946593001841,0.2855,1.0,0.0034345009264042017,0.9769190015893802,0.04401473296500921,0.4967,34,,,
BTP144 - Commando Hospital Junction,1.6666333333333334,6,12.969203566666666,77.62634385,1.0,0.6175,1.0,0.0034345009264042017,0.4125890902548006,0.05,0.494,35,,,
"BTP089 - Police Quarters, Sultan Road",2.25856091954023,87,12.960983110344829,77.56353294367817,0.8045977011494253,0.2964,1.0,0.0034345009264042017,0.9360349463709153,0.04022988505747127,0.4922,36,,,
BTP045 - Danvanthri Road Junction,2.11485847217856,3181,12.977065128575921,77.57478964140208,0.8843131090851933,0.0796,1.0,0.01721469348559039,0.9949619648337148,0.04421565545425967,0.4912,37,,,
BTP043 - Upparpet Junction,2.401056215005599,1786,12.971139927984629,77.57557195804274,0.8807390817469205,0.0285,1.0,0.013440633106387972,0.9790381751117064,0.04403695408734603,0.4905,38,,,
BTP006 - Navarang Bar Junction,1.9984808510638299,47,12.990978136170211,77.55759593617022,0.7021276595744681,0.4123,1.0,0.0034345009264042017,0.9895740661142155,0.035106382978723406,0.4887,39,,,
"BTP083 - AS Char Street, Mysore Road",2.4092497840172786,2778,12.966450044406306,77.57440287238298,0.8714902807775378,0.0672,1.0,0.010135408257912567,0.9915133098091744,0.04357451403887689,0.4842,40,,,
"BTP024 - NPS, Vijayanagar",1.7765490506329114,632,12.98291347845193,77.54882366500652,0.8417721518987342,0.051,1.0,0.025996601586148502,0.9737502374074111,0.04208860759493671,0.4765,41,,,
BTP220 - Puttanna Junction,2.1564908163265306,294,12.928844605442176,77.58282851292518,0.9251700680272109,0.037,1.0,0.016064727182642916,0.975369605853717,0.04625850340136055,0.4748,42,,,
BTP132 - Anepalya Junction,2.1344778481012656,158,12.951251251265823,77.60690484050633,0.9367088607594937,0.2743,1.0,0.0034345009264042017,0.9020781895060926,0.04683544303797468,0.4728,43,,,
BTP217 - Baleyele Junction,1.9165341176470587,85,12.957381283693532,77.56944775460542,0.9176470588235294,0.3432,1.0,0.003936473081992077,0.9779186117414208,0.04588235294117647,0.4725,44,,,
BTP138 - Sarjapur Road Check Post,2.0877613333333334,75,12.927103010322917,77.61688994134308,0.76,0.3267,1.0,0.0034345009264042017,0.959775687481882,0.038000000000000006,0.4719,45,,,
BTP203 - RRMR Junction,1.8594907692307692,130,12.96743880076923,77.59360017,0.9076923076923077,0.3771,1.0,0.0034345009264042017,0.9732604284329112,0.045384615384615384,0.4714,46,,,
BTP142 - Lower Agram Road Junction,1.8071272727272727,33,12.961824142424243,77.61549586666666,1.0,0.3966,1.0,0.0034345009264042017,0.8727496276452184,0.05,0.4711,47,,,
BTP185 - RV Teachers College,1.9113877192982456,57,12.94458577368421,77.58073809122807,0.8947368421052632,0.2878,1.0,0.007217395767481958,0.9783684363098392,0.04473684210526316,0.4695,48,,,
BTP166 - Coffee Board Junction,2.0441132231404957,121,12.984920821487604,77.5943366785124,0.7768595041322314,0.297,1.0,0.00504645639283761,0.9780885454672678,0.03884297520661157,0.4672,49,,,
BTP092 - Bangalore Builders Junction,2.0753614583333335,96,12.959323617708334,77.555697278125,0.9270833333333334,0.278,1.0,0.0034345009264042017,0.9394935974969761,0.04635416666666667,0.4665,50,,,
"BTP102 - BMTC Junction, KH Road",2.3526965714285715,175,12.955459190857143,77.59290232228571,0.8742857142857143,0.0455,1.0,0.010084626315001665,0.9734603504633194,0.04371428571428572,0.4631,51,,,
BTP120 - Lalbagh Main Gate Junction,2.391609426229508,244,12.954084420901639,77.58441278032787,0.8524590163934426,0.06,1.0,0.008158815961097883,0.9888343546017053,0.04262295081967213,0.461,52,,,
BTP051 - Safina Plaza Junction,2.4957626254126484,15449,12.981212065557246,77.60869513989651,0.9040067318273027,0.0778,1.0,0.0034345009264042017,0.9946121012805006,0.04520033659136514,0.4589,53,,,
BTP054 - Shivananda Circle,2.333621438082557,751,12.986267004491276,77.57886273319414,0.8548601864181092,0.1071,1.0,0.00635360628939458,0.9933026119813273,0.04274300932090547,0.4582,54,,,
"BTP198 - 9th Cross, 8th Main, JP Nagar",2.0170500000000002,14,12.910339621428571,77.59572164285714,0.9285714285714286,0.5013,1.0,0.0034345009264042017,0.000599766091224474,0.04642857142857143,0.4572,55,,,
BTP038 - Mysore Bank Junction,2.325193221177635,2021,12.973430411726868,77.58124380880751,0.892627412172192,0.1507,1.0,0.0034345009264042017,0.9777586741170944,0.044631370608609604,0.4566,56,,,
BTP098 - Nayandahalli Junction,2.3500101941747573,206,12.944823567475726,77.52768460776699,0.9320388349514563,0.1291,1.0,0.0034345009264042017,0.9593158668119434,0.04660194174757282,0.4546,57,,,
"BTP112 - 14th Cross, KR Road",1.64777,10,12.92934653,77.57320882,0.9,0.4521,1.0,0.0034345009264042017,0.8599746099021381,0.045000000000000005,0.4535,58,,,
BTP216 - Yediyur Junction,1.9900720930232558,172,12.93804460616813,77.57688296083747,0.7441860465116279,0.2755,1.0,0.005334908752516669,0.990153840002399,0.037209302325581395,0.448,59,,,
BTP134 - Mico Bande,2.066663265306122,49,12.945696853061223,77.6025479367347,1.0,0.2625,1.0,0.0034345009264042017,0.7480482611781405,0.05,0.4477,60,,,
"BTP159 - JP Nagar Metro, ORR",2.0117623762376238,101,12.906413123500311,77.57288417491768,0.9108910891089109,0.218,1.0,0.005626570012786259,0.9371345175381601,0.04554455445544555,0.4437,61,,,
BTP057 - Anand Rao Junction,2.2585702668360863,3935,12.979395373087675,77.57438830726811,0.8795425667090216,0.1435,1.0,0.0034345009264042017,0.994622097382021,0.04397712833545109,0.4419,62,,,
BTP118 - Basappa Circle,2.153204747320061,653,12.958166349617152,77.57756666983154,0.892802450229709,0.0472,1.0,0.011385573014511778,0.9882745729165625,0.044640122511485456,0.4417,63,,,
BTP213 - Royan Circle,2.0910142857142855,21,12.960664534079864,77.56822902305134,0.5714285714285714,0.2499,1.0,0.009604206916743189,0.729395535741061,0.02857142857142857,0.4402,64,,,
"BTP168 - MSR Building, JC Road",2.047339393939394,132,12.961180810606061,77.58428897045455,0.9166666666666666,0.2222,1.0,0.0034345009264042017,0.9723107987884725,0.04583333333333334,0.4399,65,,,
BTP036 - Police Thimmaiah Circle (GPO),2.007485542168675,83,12.981054290361447,77.59432185301205,0.6024096385542169,0.3595,1.0,0.0034345009264042017,0.8153020322074391,0.030120481927710847,0.4388,66,,,
"BTP110 - Bharathi Nursing Home, Basavanagudi",1.4206142857142858,7,12.93742960532226,77.57230527575187,0.5714285714285714,0.5877,1.0,0.0034345009264042017,0.9067463689161227,0.02857142857142857,0.4371,67,,,
BTP023 - Mahalaxmi Layout Entrance,2.13931228555617,1807,13.008974449496067,77.54920543394422,0.8456004427227449,0.1911,1.0,0.0034345009264042017,0.9944421675546536,0.04228002213613725,0.4369,68,,,
"BTP164 - 29th Main Road, BTM Layout",1.132542857142857,42,12.916027286041107,77.61535643491827,0.7142857142857143,0.6591,1.0,0.0034345009264042017,0.9358450204420277,0.03571428571428572,0.4359,69,,,
BTP219 - Canara Bank Junction,2.1730486033519556,358,12.931167219553071,77.58453701256984,0.9189944134078212,0.1342,1.0,0.003907786608992887,0.9926228770779396,0.04594972067039106,0.4306,70,,,
BTP207 - 8th Main Road Basaveshwara Nagar,1.7205225352112676,213,12.991897484976526,77.53847353051643,0.892018779342723,0.337,1.0,0.0034345009264042017,0.9781585181779107,0.044600938967136156,0.4284,71,,,
BTP141 - Palmgroove Junction,1.968878,50,12.968292564,77.613494202,0.86,0.2917,1.0,0.0034345009264042017,0.7621027799158329,0.043000000000000003,0.4279,72,,,
"BTP182 - 19th Main Junction, Rajajinagar",1.9581094244604318,1390,12.99900715064247,77.5508516759733,0.8935251798561151,0.213,1.0,0.0045202270260466595,0.9920730914943172,0.04467625899280576,0.4274,73,,,
BTP187 - South End Circle,1.7924589285714287,56,12.937437009438865,77.58186328855274,0.75,0.337,1.0,0.0034345009264042017,0.9881446235967972,0.037500000000000006,0.4256,74,,,
"BTP011 - RR Kalyana Mantapa, Dr. Rajkumar Road",1.852693129139073,1208,12.993694996696341,77.55379199356938,0.8915562913907285,0.1505,1.0,0.010284119136702666,0.9883945261348074,0.044577814569536425,0.424,75,,,
BTP180 - Swagath Poornima Theatre,2.1722992337164753,261,12.96046395210728,77.58731793409962,0.9118773946360154,0.0772,1.0,0.006566142496955595,0.9630544087805756,0.04559386973180077,0.422,76,,,
"BTP202 - East End Main Road, Jayanagar",1.714868309859155,142,12.917186653521128,77.59701229788732,0.7887323943661971,0.228,1.0,0.010364592762931224,0.9878947210587871,0.03943661971830986,0.421,77,,,
BTP137 - Madiwala Traffic PS Junction,2.0844924496644297,596,12.92332618796038,77.6198709011831,0.8741610738255033,0.1193,1.0,0.00635360628939458,0.9868351342976239,0.04370805369127517,0.4207,78,,,
BTP034 - LRDE Junction,1.9523764976958526,217,12.988339276825316,77.5917559860704,0.8894009216589862,0.1492,1.0,0.007530687684187287,0.9896440388248583,0.04447004608294931,0.4207,79,,,
BTP193 - Vasavi Circle,1.6172513274336284,113,12.949798086218998,77.5767949444681,0.911504424778761,0.3497,1.0,0.0034345009264042017,0.9920830875958376,0.045575221238938056,0.4191,80,,,
"BTP226 - 33rd Cross, 11th Main, Jayanagar",2.2598286585365854,492,12.925926613617886,77.58563274735774,0.790650406504065,0.0782,1.0,0.00560877880217085,0.9778186507262168,0.039532520325203255,0.4183,81,,,
"BTP127 - Sagar Hospital, Jayanagar",2.1526084337349394,83,12.927947021686748,77.59825148915664,0.7469879518072289,0.1646,1.0,0.0034345009264042017,0.9925629004688171,0.03734939759036145,0.4163,82,,,
BTP222 - Delmia Circle,1.6392724489795918,98,12.905932804081633,77.59263616836735,0.9387755102040817,0.2776,1.0,0.00635360628939458,0.9778786273353393,0.04693877551020409,0.4156,83,,,
"BTP062 - Basava Mantapa, Dr. Rajkumar Road",1.9979275294117647,425,12.979911838377566,77.5546504141,0.9247058823529412,0.1781,1.0,0.0034345009264042017,0.992312997930807,0.04623529411764706,0.4153,84,,,
"BTP210 - 50th cross, 12th Main , Rajajinagar",1.8049428571428572,455,12.986979151428573,77.55512463802198,0.9098901098901099,0.2181,1.0,0.005627863352669993,0.9947620428033067,0.0454945054945055,0.4127,85,,,
"BTP095 - Satellite Bus Stand, Mysore Road",1.8324005161290322,775,12.953825250666533,77.54339804607628,0.9574193548387097,0.1816,1.0,0.00635360628939458,0.9924529433520927,0.047870967741935486,0.4127,86,,,
BTP037 - KR Circle,2.2763062761506276,239,12.976534570711298,77.58653865523013,0.7238493723849372,0.0665,1.0,0.005947234600873391,0.9932426353722048,0.03619246861924686,0.4125,87,,,
"BTP093 - Toll Gate, Mysore Road",2.018131111111111,90,12.958754304444446,77.55213842444445,0.7444444444444445,0.1965,1.0,0.004996752651860931,0.9439618548765981,0.037222222222222226,0.4124,88,,,
"BTP148 - 17th Main, Doopanahalli Bus Stop",2.284364966442953,745,12.963663511161307,77.64223399413451,0.9033557046979865,0.0368,1.0,0.004537709843818416,0.9899739101750318,0.04516778523489933,0.4115,89,,,
"BTP080 - NR Road, SP Road Junction",2.1025764737842976,3681,12.96439657572473,77.58316820553203,0.8883455582722086,0.098,1.0,0.005593272017250213,0.9906036645708174,0.044417277913610435,0.4113,90,,,
"BTP114 - KR Road Junction, Near JSS",1.5709953125,64,12.924224496361514,77.57491752140425,0.984375,0.2957,1.0,0.00635360628939458,0.9182918661721928,0.049218750000000006,0.4105,91,,,
"BTP115 - Sahasra Hospital, Jayanagar",1.7191505524861879,362,12.91728404702033,77.5738125694776,0.9060773480662984,0.2842,1.0,0.0034345009264042017,0.9883145573226442,0.04530386740331492,0.4084,92,,,
"BTP177 - Aurobindo Circle, ORR",1.9871145161290322,186,12.916612181720431,77.58524550268818,0.8655913978494624,0.1399,1.0,0.005856361659441359,0.965423484840912,0.04327956989247312,0.4054,93,,,
BTP215 - Vanivillas Junction,2.0773315668202765,434,12.946120153483719,77.57023379090926,0.7603686635944701,0.101,1.0,0.006953005209755897,0.9911934345605214,0.038018433179723504,0.4033,94,,,
BTP052 - CID Carlton House Junction,2.201308585858586,198,12.980863155860892,77.58762164743166,0.7171717171717171,0.0929,1.0,0.005113744673512221,0.9773388378532373,0.03585858585858586,0.4019,95,,,
"BTP099 - Cash Pharmacy, Residency Road",2.049096561604584,349,12.969120946131804,77.60030236275072,0.8022922636103151,0.0904,1.0,0.007549642808751289,0.9760693329601455,0.04011461318051576,0.4015,96,,,
BTP044 - Sagar Theatre Junction,1.988277125793914,10549,12.974938996857006,77.57889570478889,0.8496539956393971,0.1105,1.0,0.006352705627987131,0.99263287317946,0.04248269978196986,0.3976,97,,,
BTP192 - Urvashi Theater,2.03842448,625,12.95650754928,77.58603276544001,0.8544,0.1308,1.0,0.0038135348868297532,0.9923729745399295,0.04272000000000001,0.397,98,,,
BTP063 - Siddalingaiah Circle,2.066581037735849,1060,12.971526511981132,77.5967034683019,0.8273584905660377,0.1082,1.0,0.004840820058819273,0.9928128030068273,0.04136792452830189,0.3969,99,,,
BTP061 - Bhashyam Circle,1.7348466019417477,1030,12.985184338307276,77.55392274871211,0.916504854368932,0.1421,1.0,0.009445070492982545,0.993492537910215,0.0458252427184466,0.3967,100,,,
"BTP145 - Sri Hatti Maramma Circle, Domluru",1.8045937142857142,175,12.961282601803124,77.63615441362482,0.9314285714285714,0.1803,1.0,0.005250397371980367,0.9917632123471846,0.04657142857142857,0.396,101,,,
"BTP204 - ESI Hospital, Rajajinagar",1.7080310344827585,638,12.990358886677116,77.55373500799372,0.8166144200626959,0.2114,1.0,0.0075455080413139135,0.9948620038185108,0.0408307210031348,0.3959,102,,,
BTP167 - JC Road Junction,2.006297849462366,372,12.9582712466602,77.58126169958715,0.8602150537634409,0.098,1.0,0.006895549484648497,0.9359149931526705,0.043010752688172046,0.3951,103,,,
BTP128 - Gorappanapalya Junction,1.3403854545454545,55,12.920460569090908,77.60040643272727,0.9272727272727272,0.4052,1.0,0.0034345009264042017,0.9445516248663022,0.046363636363636364,0.3906,104,,,
BTP119 - Minerva Circle,1.808062311557789,199,12.955163112562813,77.58039649145728,0.8693467336683417,0.2316,1.0,0.0034345009264042017,0.9051969731804597,0.04346733668341709,0.3892,105,,,
BTP140 - Madiwala Check Post,1.9530173913043476,368,12.932305598913045,77.6132812736413,0.8722826086956522,0.0468,1.0,0.00927271165238496,0.9929827367326742,0.043614130434782614,0.3885,106,,,
"BTP001 - 10th Cross, Dr. Rajkumar Road",1.9117678165007113,2812,13.007811443262298,77.55465340067576,0.8911806543385491,0.1587,1.0,0.0034345009264042017,0.9972610681834084,0.04455903271692746,0.3884,107,,,
BTP028 - Vijayanagar Bus Stand Junction,1.8778088859416444,754,12.972568562228885,77.53806133053999,0.9655172413793104,0.1574,1.0,0.0034345009264042017,0.9468007477083937,0.048275862068965524,0.3854,108,,,
BTP096 - Gali Anjaneya Temple,1.8277442386831275,972,12.952594812896978,77.54121609195656,0.9393004115226338,0.0797,1.0,0.008836226725618622,0.9924329511490518,0.046965020576131694,0.3848,109,,,
BTP184 - Lalbagh West Gate,1.6089232558139535,215,12.94843504744186,77.58018114418606,0.6651162790697674,0.3202,1.0,0.00445015860052478,0.9928527874129089,0.033255813953488374,0.3839,110,,,
BTP076 - Hudson Circle,1.7177208791208791,455,12.968029834285714,77.58880913494505,0.832967032967033,0.1871,1.0,0.006666996406209152,0.9905236957586542,0.04164835164835165,0.3823,111,,,
BTP208 - Havanur Circle,1.848940024630542,812,12.987954160845806,77.53755577344506,0.8288177339901478,0.1357,1.0,0.00635360628939458,0.9899439218704705,0.04144088669950739,0.3809,112,,,
BTP158 - Devegowda Petrol Bunk,1.6192466666666667,45,12.921245118184277,77.56029589125625,0.8444444444444444,0.2815,1.0,0.0034345009264042017,0.9640540189326163,0.042222222222222223,0.3799,113,,,
"BTP188 - 27th Cross, 4th Main, Jayanagar",1.5732578231292518,294,12.929681475170067,77.5805690537415,0.6632653061224489,0.3437,1.0,0.0034345009264042017,0.9900638750887154,0.03316326530612245,0.3796,114,,,
"BTP123 - 10th Cross, Wilson Garden",1.9701319626168226,535,12.94600243397952,77.59607296917757,0.7831775700934579,0.1136,1.0,0.004926237424699807,0.9933326002858885,0.039158878504672895,0.3776,115,,,
BTP067 - Jai Muni Rao Circle,1.7623171149144254,409,12.978517780813087,77.54273679499191,0.9119804400977995,0.122,1.0,0.007335111423631247,0.9778886234368597,0.04559902200488998,0.3754,116,,,
BTP009 - Prakash Nagar Junction,1.4278721374045802,262,12.992517874427481,77.55763266068702,0.9236641221374046,0.2754,1.0,0.00613819326177297,0.9895940583172562,0.04618320610687023,0.375,117,,,
BTP205 - Modi Hospital Junction,1.8039108133971293,1045,12.997488303320912,77.54695407575124,0.9272727272727272,0.1502,1.0,0.00410643787395507,0.988874339007787,0.046363636363636364,0.3739,118,,,
"BTP161 - 15th Cross, 35th Main, JP Nagar",1.5937217391304348,23,12.906264035557681,77.57765224581213,1.0,0.2806,1.0,0.005102270463484439,0.647937304451264,0.05,0.3737,119,,,
BTP106 - VV Puram College,1.4517987421383647,159,12.952855020536774,77.57449485352718,0.9119496855345912,0.265,1.0,0.006265856282436779,0.9785783544417677,0.045597484276729564,0.3733,120,,,
BTP136 - Hosur-Tavarkere Road Junction,1.8666319444444444,360,12.93432707138889,77.60844668972223,0.8638888888888889,0.1541,1.0,0.0034345009264042017,0.9763292315996761,0.04319444444444445,0.3731,121,,,
BTP105 - Shivasankara Circle,1.3139236559139786,186,12.956902590860215,77.57416609784947,0.9301075268817204,0.387,1.0,0.0034345009264042017,0.8731494717060346,0.046505376344086025,0.3714,122,,,
BTP040 - Elite Junction,1.7764532095540213,10718,12.976596713370032,77.5766021547117,0.8592088076133607,0.096,1.0,0.007983905855475305,0.9928727796159498,0.04296044038066804,0.367,123,,,
BTP155 - Katriguppe Junction,1.4363188790560473,339,12.9266994100295,77.55074285663717,0.6460176991150443,0.3263,1.0,0.00635360628939458,0.9796879217105329,0.032300884955752215,0.3663,124,,,
BTP058 - Subbanna Junction,1.8858776835613797,5189,12.979021616597574,77.57866101486218,0.8437078435151282,0.1178,1.0,0.004025548053472265,0.9933226041843681,0.04218539217575641,0.3648,125,,,
"BTP176 - Rajalakshmi Kalyana Mantapa, JP Nagar",1.7639454081632653,196,12.917309109693877,77.57831904234695,0.8928571428571429,0.1025,1.0,0.007042243353890788,0.9760593368586251,0.04464285714285715,0.3629,126,,,
"BTP191 - 40th Cross, 4th Main, Jayanagar",1.4747171428571428,105,12.920106225714285,77.58220127047619,0.9047619047619048,0.2825,1.0,0.0034345009264042017,0.9738601945241356,0.045238095238095244,0.3626,127,,,
"BTP197 - 9th Cross, 24th Main, JP Nagar",1.7414915492957745,284,12.911549545221384,77.58599000264428,0.9929577464788732,0.0793,1.0,0.008413333569456583,0.8752986335329221,0.049647887323943665,0.3607,128,,,
"BTP163 - 16th Main Road, BTM Layout",1.6125994505494508,364,12.91499527445055,77.60852014148351,0.9230769230769231,0.2076,1.0,0.0034345009264042017,0.9790881556193085,0.046153846153846156,0.358,129,,,
BTP225 - Geetha Junction,1.872167944250871,287,12.928338116027875,77.58587362578398,0.8850174216027874,0.087,1.0,0.004591497147564384,0.9777186897110127,0.04425087108013937,0.3567,130,,,
BTP135 - UCO Bank Junction,1.8141852517985613,1112,12.935621750629496,77.61497794019785,0.9181654676258992,0.109,1.0,0.0034345009264042017,0.9979607952898369,0.04590827338129497,0.3532,131,,,
BTP010 - Rajajinagar Entrance,1.9553530825496341,957,12.982261563097772,77.56008112329171,0.8944618599791013,0.0598,1.0,0.0034345009264042017,0.9505992662861484,0.04472309299895507,0.3498,132,,,
BTP109 - Dewan Madhava Rao Junction,1.5354822006472493,309,12.940864320388348,77.57243474530745,0.8220064724919094,0.1082,1.0,0.01130114902788926,0.9901138555963175,0.041100323624595474,0.3492,133,,,
BTP008 - Navarang Theatre,1.5470206722689075,1190,12.998492417815125,77.55309264941177,0.8252100840336134,0.2027,1.0,0.0054318341801918545,0.9925129199612152,0.041260504201680676,0.3489,134,,,
BTP091 - Sirsi Circle,1.8545201520912546,263,12.962208439163499,77.55862826692015,0.8859315589353612,0.0352,1.0,0.006198254947108546,0.9890542688351542,0.04429657794676806,0.3447,135,,,
BTP047 - Vidhan Soudha Metro Station,1.7904650000000002,200,12.979835985,77.59251278949999,0.665,0.0786,1.0,0.00841319543006134,0.9934025729965313,0.03325,0.3427,136,,,
BTP082 - KR Market Junction,1.8235662159819728,11538,12.964423750642322,77.57724121294086,0.8697347893915757,0.0741,1.0,0.00444956635665403,1.0,0.04348673946957879,0.342,137,,,
"BTP113 - 27th Cross, Pai Vista, KR Road",1.32296484375,128,12.9175333703125,77.5731112515625,0.8828125,0.2654,1.0,0.005661816304721936,0.9606253561111167,0.044140625,0.3409,138,,,
"BTP179 - 9th Block, 28th Main, Jayanagar",1.3483581818181818,110,12.91695609,77.59508601818183,0.8545454545454545,0.2714,1.0,0.004718352440327637,0.9881046391907157,0.042727272727272725,0.3405,139,,,
BTP126 - Dairy Circle,1.8863257485029938,334,12.936743940419163,77.60242927844311,0.7634730538922155,0.089,1.0,0.0034345009264042017,0.9900038984795929,0.03817365269461078,0.3386,140,,,
BTP130 - GD Mara Junction,1.4945014263074485,631,12.908069876703646,77.60081684453249,0.9096671949286846,0.2092,1.0,0.0034345009264042017,0.9899439218704705,0.045483359746434235,0.3372,141,,,
BTP027 - Modi Bridge Junction,1.55375239965096,4584,12.998897494610551,77.54941567682627,0.7984293193717278,0.049,1.0,0.012571236643470138,0.9954217855036536,0.039921465968586395,0.3344,142,,,
BTP214 - 5th Main Chamrajpet  Junction,1.780754365079365,252,12.96500902960007,77.55255323659712,0.9404761904761905,0.11,1.0,0.0034345009264042017,0.8060656344025829,0.04702380952380952,0.3311,143,,,
"BTP016 - 5th Main Road, RPC Layout",1.4254443815683104,2474,12.965246043934675,77.5378432820211,0.9696847210994342,0.2014,1.0,0.0034345009264042017,0.9924329511490518,0.04848423605497171,0.3289,144,,,
"BTP189 - New Diagonal Road, Jayanagar",1.6566626245847176,602,12.928112280564784,77.58069761295681,0.8421926910299004,0.0594,1.0,0.008060693555066263,0.961175141694739,0.04210963455149502,0.3256,145,,,
BTP107 - National College Junction,1.1484972602739727,73,12.948955050684932,77.57294951506849,0.9178082191780822,0.3224,1.0,0.004378131881005472,0.9177420805885704,0.045890410958904115,0.3245,146,,,
BTP074 - Leprosy Hospital Junction,1.7610758357211078,1047,12.975846885138832,77.56179568138215,0.9159503342884432,0.0523,1.0,0.0034345009264042017,0.9927528263977049,0.045797516714422164,0.3189,147,,,
BTP100 - Richmond Circle,1.1284417763157895,304,12.962800310526315,77.59827016480263,0.7796052631578947,0.3656,1.0,0.0034345009264042017,0.9325363108387729,0.03898026315789474,0.3178,148,,,
"BTP117 - 9th Cross, Kanakapura Road",1.399259283387622,307,12.91214845732899,77.57334888045604,0.8762214983713354,0.0853,1.0,0.010839814579769881,0.973920171133258,0.04381107491856678,0.3166,149,,,
BTP218 - Syndicate Bank Junction,1.4983353276353277,351,12.934673374928776,77.58443592279203,0.9202279202279202,0.052,1.0,0.009119407909610295,0.9923329901338478,0.04601139601139601,0.3144,150,,,
BTP108 - Tagore Park Junction,1.4672974458634092,1801,12.943901209259396,77.57143116315804,0.8678511937812327,0.154,1.0,0.004464978745298292,0.9938224092603885,0.04339255968906164,0.312,151,,,
"BTP206 - Shankara Mutt Circle, Vijayanagar",1.698012656467316,719,12.998620176634214,77.54142142920723,0.9276773296244785,0.0667,1.0,0.0034345009264042017,0.9465708373734244,0.046383866481223925,0.3105,152,,,
"BTP022 - Marenahalli Junction, Vijayanagar",1.4237440795159897,1157,12.968779866920466,77.53673460275871,0.8798617113223854,0.0857,1.0,0.00927271165238496,0.974829816371615,0.04399308556611928,0.3101,153,,,
BTP017 - Attiguppe Circle,1.2451052132701421,422,12.960583327014218,77.52963757037915,0.9620853080568721,0.2626,1.0,0.0034345009264042017,0.8632633273023521,0.048104265402843606,0.3091,154,,,
BTP071 - Prasanna Junction,1.4861072122052705,721,12.974369503954971,77.55203424621543,0.9153952843273232,0.127,1.0,0.00430580916491049,0.9919531382760723,0.045769764216366166,0.3081,155,,,
"BTP070 - Cholurpalya Junction, Magadi Road",1.3315718749999998,2272,12.973484256997908,77.550805919489,0.920774647887324,0.115,1.0,0.008224284325051727,0.994991953138276,0.046038732394366205,0.3053,156,,,
BTP069 - MC Circle,1.4627995348837208,1075,12.974620575358045,77.54751794417268,0.9283720930232559,0.1289,1.0,0.004387546816154891,0.9640640150341366,0.04641860465116279,0.3041,157,,,
BTP196 - Sarakki Main Road,1.2426673913043478,138,12.910996460923245,77.57833824855072,0.9565217391304348,0.2023,1.0,0.005579930244990895,0.8303261727926109,0.04782608695652174,0.2948,158,,,
BTP042 - Minsk Square Junction (CTO),1.18171927592955,2044,12.981175736986302,77.59845689202544,0.8796477495107632,0.0858,1.0,0.013059365825254557,0.9637441397854837,0.04398238747553816,0.2939,159,,,
BTP020 - Hosahalli Metro Station,1.1770563033406487,4101,12.97414419858571,77.54529421309437,0.8944159960985125,0.095,1.0,0.012383991022013825,0.9386439288677416,0.04472079980492563,0.2913,160,,,
BTP068 - Veeresh Theatre Junction,1.3710045634920636,504,12.977227481944444,77.54562137718254,0.9027777777777778,0.1419,1.0,0.0034345009264042017,0.9778586351322984,0.045138888888888895,0.2847,161,,,
"BTP033 - Sophia High School, Sankey Road",1.2134072115384615,208,12.990444546153846,77.58866545673077,0.9326923076923077,0.1634,1.0,0.0034345009264042017,0.9773588300562781,0.046634615384615385,0.2693,162,,,
BTP032 - Windsor Circle,1.2556228810476537,2749,12.99308791268715,77.58818366254266,0.8715896689705347,0.1318,1.0,0.005123501837898031,0.9776887014064515,0.04357948344852674,0.2687,163,,,
BTP172 - Nanjappa Circle,1.2023367268041236,776,12.961702129381443,77.59948909484535,0.8324742268041238,0.1063,1.0,0.00908826215808157,0.9314167474684873,0.04162371134020619,0.2684,164,,,
"BTP101 - Blood Bank Circle, KH Road",0.8754751219512195,410,12.961947537560976,77.59617864317073,0.7121951219512195,0.3469,1.0,0.004668054423911614,0.9019482401863274,0.03560975609756097,0.2631,165,,,
"BTP190 - 36th Cross, 4th Main, Jayanagar",1.0837124137931033,145,12.922585208123428,77.5812768107059,0.8275862068965517,0.2164,1.0,0.004802042252205627,0.9361349073861194,0.041379310344827586,0.2624,166,,,
"BTP186 - 9th Cross, 4th Main, Jayanagar",1.2744945054945056,546,12.939329417176364,77.58299607614546,0.7051282051282052,0.1495,1.0,0.004869552723557745,0.992902767920511,0.03525641025641026,0.2598,167,,,
BTP041 - Gopal Gowda Circle,1.2234092592592591,378,12.977295857671956,77.59026518835978,0.791005291005291,0.0923,1.0,0.00458955007846373,0.9867151810793791,0.03955026455026456,0.2338,168,,,
Unknown,2.77334,5,12.976421199999999,77.58518606,0.6,0.0,0.0,0.011564258419470185,,0.03,,169,,,
